{"frames":[{"name":"EAST LAKE STREET, NEAR HIAWATHA","longitude":-93.236405,"latitude":44.948149,"zoom":14},
    {"name":"LAKE STREET, BETWEEN PARK AND HIAWATHA","longitude":-93.25629,"latitude":44.95006,"zoom":14},
    {"name":"LAKE STREET NEAR I-35W","longitude":-93.278061,"latitude":44.948421,"zoom":14.5},
    {"name":"WEST LAKE STREET AND UPTOWN","longitude":-93.29318,"latitude":44.95196,"zoom":14},
    {"name":"DOWNTOWN MINNEAPOLIS","longitude":-93.265015,"latitude":44.977753,"zoom":14},
    {"name":"NORTH MINNEAPOLIS","longitude":-93.295831,"latitude":44.999666,"zoom":14}]}